[
    {
        "district": "Оҳангарон шаҳар",
        "org_name": "\"Орхидея Люкс\" МЧЖ",
        "name": "Оҳангарон шаҳар саноат ҳудуди",
        "quantity": 1.0,
        "capacity": 500.0,
        "created_workplaces": 2,
        "type": "storage",
        "lat": 38.698809,
        "lon": 66.999099
    },
    {
        "district": "Оҳангарон шаҳар",
        "org_name": "\"Оҳангарон Деҳқон бозори\" МЧЖ",
        "name": "Оҳангарон шаҳар \"Хонобод\" МФЙ",
        "quantity": 1.0,
        "capacity": 150.0,
        "created_workplaces": 1,
        "type": "storage",
        "lat": 37.485088,
        "lon": 67.290617
    },
    {
        "district": "Оҳангарон шаҳар",
        "org_name": "\"Оҳангарон дон\" АЖ",
        "name": "Оҳангарон шаҳар саноат ҳудуди",
        "quantity": 1.0,
        "capacity": 1000.0,
        "created_workplaces": 8,
        "type": "storage",
        "lat": 38.067885,
        "lon": 59.382949
    },
    {
        "district": "Оҳангарон шаҳар",
        "org_name": "\"Темир ота\" МЧЖ",
        "name": "Оҳангарон шаҳар А.Темур кўчаси",
        "quantity": 1.0,
        "capacity": 100.0,
        "created_workplaces": 1,
        "type": "storage",
        "lat": 39.155306,
        "lon": 68.449095
    },
    {
        "district": "Бекобод шаҳар",
        "org_name": "\"Бекобод шаҳар томорқа хизмати\" МЧЖ",
        "name": "Бекобод шаҳар Ал-Хоразмий МФЙ Меъмор кўчаси18 А-уй",
        "quantity": 1.0,
        "capacity": 500.0,
        "created_workplaces": 12,
        "type": "storage",
        "lat": 39.504984,
        "lon": 70.88547
    },
    {
        "district": "Бекобод шаҳар",
        "org_name": "\"Ўзметкомбинат\" АЖ",
        "name": "Сайхун МФЙ Сирдарё кўчаси 1-уй",
        "quantity": 1.0,
        "capacity": 250.0,
        "created_workplaces": 8,
        "type": "storage",
        "lat": 40.185754,
        "lon": 69.363518
    },
    {
        "district": "Бекобод шаҳар",
        "org_name": "\"Бекободцемент\" АЖ",
        "name": "Бирдамлик МФЙ Истиқлол 20-уй",
        "quantity": 1.0,
        "capacity": 7.5,
        "created_workplaces": 2,
        "type": "storage",
        "lat": 42.352862,
        "lon": 70.680293
    },
    {
        "district": "Бекобод шаҳар",
        "org_name": "\"Бекобод деҳқон бозори\" МЧЖ",
        "name": "Ўзбекистон МФЙ Буюк ипак йўли кўчаси 1-уй ",
        "quantity": 1.0,
        "capacity": 200.0,
        "created_workplaces": 6,
        "type": "storage",
        "lat": 38.292377,
        "lon": 71.321518
    },
    {
        "district": "Бекобод шаҳар",
        "org_name": "шаҳар Мактабгача таълим муассаси (12 та)",
        "name": "Шаҳардаги 12 та МТМ ларида",
        "quantity": 12.0,
        "capacity": 44.0,
        "created_workplaces": "None",
        "type": "storage",
        "lat": 37.348772,
        "lon": 68.802458
    },
    {
        "district": "Бекобод шаҳар",
        "org_name": "шаҳар Тиббиёт бирлашмаси",
        "name": "Бекобод шахар худуди",
        "quantity": 1.0,
        "capacity": 35.0,
        "created_workplaces": "None",
        "type": "storage",
        "lat": 41.063437,
        "lon": 65.686437
    },
    {
        "district": "Бекобод шаҳар",
        "org_name": "шаҳар Халқ таьлими бўлими",
        "name": "Бекобод шахар худуди",
        "quantity": 1.0,
        "capacity": 45.0,
        "created_workplaces": "None",
        "type": "storage",
        "lat": 38.921404,
        "lon": 72.690158
    },
    {
        "district": "Ангрен шаҳар",
        "org_name": "\"ANGRENSAVDO\" МЧЖ",
        "name": "“Дўстлик” МФЙ, Бунёдкор кўчаси 36 уй ",
        "quantity": 1.0,
        "capacity": 5000.0,
        "created_workplaces": 3,
        "type": "storage",
        "lat": 39.41025,
        "lon": 68.365816
    },
    {
        "district": "Ангрен шаҳар",
        "org_name": "\"Муқаддас\" ФХ ",
        "name": "\"Самарчик\" МФЙ",
        "quantity": 1.0,
        "capacity": 1000.0,
        "created_workplaces": 5,
        "type": "storage",
        "lat": 41.5644,
        "lon": 72.387718
    },
    {
        "district": "Олмалиқ шаҳар",
        "org_name": "\"Савдо\" МЧЖ",
        "name": "Мустақиллик кўчаси",
        "quantity": 1.0,
        "capacity": 500.0,
        "created_workplaces": 10,
        "type": "storage",
        "lat": 43.089657,
        "lon": 65.227731
    },
    {
        "district": "Олмалиқ шаҳар",
        "org_name": "Мактабгача таълим ",
        "name": "Зулфия 47-уй",
        "quantity": 17.0,
        "capacity": 80.0,
        "created_workplaces": 5,
        "type": "storage",
        "lat": 41.03384,
        "lon": 66.522601
    },
    {
        "district": "Олмалиқ шаҳар",
        "org_name": "Халқ таълими бўлими",
        "name": "Тотувлик кўчаси 15-уй",
        "quantity": 2.0,
        "capacity": 20.0,
        "created_workplaces": 8,
        "type": "storage",
        "lat": 37.819772,
        "lon": 63.360205
    },
    {
        "district": "Янгийўл шаҳар ",
        "org_name": "Янгийўл таёрлов савдо (бозор)",
        "name": "Шерматов 4 уй ",
        "quantity": 1.0,
        "capacity": 150.0,
        "created_workplaces": 3,
        "type": "storage",
        "lat": 42.364056,
        "lon": 69.462187
    },
    {
        "district": "Янгийўл шаҳар ",
        "org_name": "Янгийўл озиқ овқат савдо",
        "name": "Самарқанд кўчаси 187 уй",
        "quantity": 1.0,
        "capacity": 500.0,
        "created_workplaces": 4,
        "type": "storage",
        "lat": 39.751554,
        "lon": 68.541308
    },
    {
        "district": "Янгийўл шаҳар ",
        "org_name": "\"Кристал консерва бизнес\" МЧЖ",
        "name": "Абдуллақахорова",
        "quantity": 1.0,
        "capacity": 200.0,
        "created_workplaces": 7,
        "type": "storage",
        "lat": 43.72702,
        "lon": 70.040248
    },
    {
        "district": "Янгийўл шаҳар ",
        "org_name": "\"Янгийўл ёғ-мой\" АЖ",
        "name": "Самарқанд кўчаси 352 уй",
        "quantity": 1.0,
        "capacity": 200.0,
        "created_workplaces": 5,
        "type": "storage",
        "lat": 41.826541,
        "lon": 61.072596
    },
    {
        "district": "Чирчиқ шаҳар",
        "org_name": "\"Максам-Чирчиқ\" МЧЖ",
        "name": "Тошкент кўчаси 2-уй",
        "quantity": 1.0,
        "capacity": 850.0,
        "created_workplaces": 6,
        "type": "storage",
        "lat": 40.5336,
        "lon": 70.981044
    },
    {
        "district": "Чирчиқ шаҳар",
        "org_name": "Тиббиёт бирлашмаси",
        "name": "8 кичик нохия ",
        "quantity": 1.0,
        "capacity": 3.0,
        "created_workplaces": "None",
        "type": "storage",
        "lat": 39.288178,
        "lon": 63.067939
    },
    {
        "district": "Чирчиқ шаҳар",
        "org_name": "Мактабгача таълим бўлими",
        "name": "Ломоносов кўчаси 1 уй",
        "quantity": 1.0,
        "capacity": 128.0,
        "created_workplaces": "None",
        "type": "storage",
        "lat": 40.634374,
        "lon": 65.569989
    },
    {
        "district": "Оққўрғон тумани ",
        "org_name": "\"АБС Оққўрғон агро класстер\" МЧЖ",
        "name": "Наврўз МФЙ, Мустақиллик кўчаси",
        "quantity": 1.0,
        "capacity": 1500.0,
        "created_workplaces": 4,
        "type": "storage",
        "lat": 42.002939,
        "lon": 65.456348
    },
    {
        "district": "Оққўрғон тумани ",
        "org_name": "Оққўрғон Томорқа хизмати маркази",
        "name": "Бирлик МФЙ, Навоий кўчаси",
        "quantity": 1.0,
        "capacity": 3000.0,
        "created_workplaces": 2,
        "type": "storage",
        "lat": 39.209905,
        "lon": 70.938331
    },
    {
        "district": "Оққўрғон тумани ",
        "org_name": "78-сонли ММИ",
        "name": "\"Мустақиллик\" МФЙ",
        "quantity": 1.0,
        "capacity": 15.0,
        "created_workplaces": "None",
        "type": "storage",
        "lat": 43.01041,
        "lon": 72.530288
    },
    {
        "district": "Оққўрғон тумани ",
        "org_name": "Мактабгача таълим бўлими қошидаги МТМ лари",
        "name": "\"Толовул\" МФЙ",
        "quantity": 14.0,
        "capacity": 70.0,
        "created_workplaces": "None",
        "type": "storage",
        "lat": 37.546741,
        "lon": 60.861532
    },
    {
        "district": "Оққўрғон тумани ",
        "org_name": "Туман Тиббиёт бирлашмаси қошидаги Марказий шифохона ",
        "name": "\"Бирлик\" МФЙ                                 Р.Мўминова кўчаси",
        "quantity": 1.0,
        "capacity": 30.0,
        "created_workplaces": "None",
        "type": "storage",
        "lat": 37.321049,
        "lon": 66.955858
    },
    {
        "district": "Оққўрғон тумани ",
        "org_name": "\"Қўрғонча\" МЧЖ           ",
        "name": "\"Қўрғонча\" МФЙ",
        "quantity": 1.0,
        "capacity": 300.0,
        "created_workplaces": 2,
        "type": "storage",
        "lat": 40.12416,
        "lon": 58.904387
    },
    {
        "district": "Оҳангарон тумани",
        "org_name": " \"BIRLIK TOMORQA HIZMAT\" МЧЖ",
        "name": "Шодмалик МФЙ",
        "quantity": 1.0,
        "capacity": 600.0,
        "created_workplaces": 2,
        "type": "storage",
        "lat": 39.458604,
        "lon": 67.198843
    },
    {
        "district": "Оҳангарон тумани",
        "org_name": "\"MADINA OHANG AGRO\" MCHJ",
        "name": " Телов МФЙ",
        "quantity": 1.0,
        "capacity": 100.0,
        "created_workplaces": 6,
        "type": "storage",
        "lat": 39.384978,
        "lon": 60.713268
    },
    {
        "district": "Бекобод туман",
        "org_name": "\"МГФ Агро транс\" МЧЖ",
        "name": "Авангард ф/у, Боғишамол МФЙ",
        "quantity": 1.0,
        "capacity": 500.0,
        "created_workplaces": 3,
        "type": "storage",
        "lat": 41.41283,
        "lon": 62.287104
    },
    {
        "district": "Бекобод туман",
        "org_name": "\"Зафар деҳқон бозори\" МЧЖ",
        "name": "Деҳқонобод ф/у, Ўзбекобод МФЙ",
        "quantity": 1.0,
        "capacity": 85.0,
        "created_workplaces": 1,
        "type": "storage",
        "lat": 37.394999,
        "lon": 59.105595
    },
    {
        "district": "Бекобод туман",
        "org_name": "Тиббиёт бирлашмаси",
        "name": "Зафар ш, \nБўстон МФЙ",
        "quantity": 1.0,
        "capacity": 55.0,
        "created_workplaces": 1,
        "type": "storage",
        "lat": 43.543823,
        "lon": 68.390588
    },
    {
        "district": "Бекобод туман",
        "org_name": "Халқ таълими бўлими",
        "name": "тумандаги МТМларда",
        "quantity": 1.0,
        "capacity": 60.0,
        "created_workplaces": 1,
        "type": "storage",
        "lat": 40.982575,
        "lon": 59.294198
    },
    {
        "district": "Бекобод туман",
        "org_name": "None",
        "name": "None",
        "quantity": "None",
        "capacity": "None",
        "created_workplaces": "None",
        "type": "storage",
        "lat": 41.536316,
        "lon": 72.754883
    },
    {
        "district": "Бўка тумани",
        "org_name": "\"Universal Dealer\" МЧЖ ",
        "name": "Ўзбекистон кўчаси 3 уй",
        "quantity": 1.0,
        "capacity": 6000.0,
        "created_workplaces": 10,
        "type": "storage",
        "lat": 39.24037,
        "lon": 61.23365
    },
    {
        "district": "Бўка тумани",
        "org_name": "None",
        "name": "None",
        "quantity": "None",
        "capacity": "None",
        "created_workplaces": "None",
        "type": "storage",
        "lat": 41.643515,
        "lon": 69.525598
    },
    {
        "district": "Бўстонлиқ тумани",
        "org_name": "\"Сифатли омбор\" МЧЖ",
        "name": "Дахана МФЙ",
        "quantity": 1.0,
        "capacity": 800.0,
        "created_workplaces": 3,
        "type": "storage",
        "lat": 40.835426,
        "lon": 62.167825
    },
    {
        "district": "Бўстонлиқ тумани",
        "org_name": "Гулфируза Уразалиевна Ф/Х",
        "name": "Думалоқ ҚФЙ",
        "quantity": 1.0,
        "capacity": 500.0,
        "created_workplaces": 2,
        "type": "storage",
        "lat": 39.456486,
        "lon": 65.213765
    },
    {
        "district": "Бўстонлиқ тумани",
        "org_name": "Шерпўлат Мархамат Фарход  Ф/Х",
        "name": "Янгиоул ҚФЙ Дўстлик қишлоғи",
        "quantity": 1.0,
        "capacity": 200.0,
        "created_workplaces": 2,
        "type": "storage",
        "lat": 40.821798,
        "lon": 70.918946
    },
    {
        "district": "Бўстонлиқ тумани",
        "org_name": "\"Sevara Bobur\" Ф/Х",
        "name": "Думалоқ МФЙ",
        "quantity": 1.0,
        "capacity": 200.0,
        "created_workplaces": 2,
        "type": "storage",
        "lat": 39.758711,
        "lon": 70.25269
    },
    {
        "district": "Бўстонлиқ тумани",
        "org_name": "\"Burxon G`olibxon Otaxon\" Ф/Х",
        "name": "Боймирзаев МФЙ",
        "quantity": 1.0,
        "capacity": 300.0,
        "created_workplaces": 3,
        "type": "storage",
        "lat": 39.137054,
        "lon": 69.185822
    },
    {
        "district": "Бўстонлиқ тумани",
        "org_name": "Туман Тиббиёт бирлашмаси",
        "name": "Ғазалкент ҚФЙ",
        "quantity": 1.0,
        "capacity": 74.0,
        "created_workplaces": "х",
        "type": "storage",
        "lat": 43.144833,
        "lon": 68.764936
    },
    {
        "district": "Бўстонлиқ тумани",
        "org_name": "Туман Халқ таьлими бўлими",
        "name": "Бўстонлиқ тумани худудлари",
        "quantity": 19.0,
        "capacity": 60.0,
        "created_workplaces": "х",
        "type": "storage",
        "lat": 37.694493,
        "lon": 70.258476
    },
    {
        "district": "Қибрай тумани ",
        "org_name": "\"Т.Нормухамедов\" агрофирмаси",
        "name": "Нормухамедов худуди",
        "quantity": 1.0,
        "capacity": 500.0,
        "created_workplaces": 1,
        "type": "storage",
        "lat": 41.913491,
        "lon": 61.816454
    },
    {
        "district": "Қибрай тумани ",
        "org_name": "Байтқурғон Туляков Шухрат",
        "name": "Байткургон мфй",
        "quantity": 1.0,
        "capacity": 1000.0,
        "created_workplaces": 2,
        "type": "storage",
        "lat": 40.241709,
        "lon": 62.640927
    },
    {
        "district": "None",
        "org_name": "None",
        "name": "None",
        "quantity": "None",
        "capacity": "None",
        "created_workplaces": "None",
        "type": "storage",
        "lat": 38.355586,
        "lon": 68.731215
    },
    {
        "district": "None",
        "org_name": "None",
        "name": "None",
        "quantity": "None",
        "capacity": "None",
        "created_workplaces": "None",
        "type": "storage",
        "lat": 40.127588,
        "lon": 68.921249
    },
    {
        "district": "None",
        "org_name": "None",
        "name": "None",
        "quantity": "None",
        "capacity": "None",
        "created_workplaces": "None",
        "type": "storage",
        "lat": 37.423831,
        "lon": 68.005583
    },
    {
        "district": "None",
        "org_name": "None",
        "name": "None",
        "quantity": "None",
        "capacity": "None",
        "created_workplaces": "None",
        "type": "storage",
        "lat": 42.804932,
        "lon": 68.396216
    },
    {
        "district": "None",
        "org_name": "None",
        "name": "None",
        "quantity": "None",
        "capacity": "None",
        "created_workplaces": "None",
        "type": "storage",
        "lat": 41.253119,
        "lon": 60.318823
    },
    {
        "district": "None",
        "org_name": "None",
        "name": "None",
        "quantity": "None",
        "capacity": "None",
        "created_workplaces": "None",
        "type": "storage",
        "lat": 37.651513,
        "lon": 71.465662
    },
    {
        "district": "Қуйи Чирчиқ тумани",
        "org_name": "\"Агро савдо тайёрлов\" МЧЖ",
        "name": "Машраб МФЙ",
        "quantity": 1.0,
        "capacity": 100.0,
        "created_workplaces": 8,
        "type": "storage",
        "lat": 39.568547,
        "lon": 61.978271
    },
    {
        "district": "Қуйи Чирчиқ тумани",
        "org_name": "Туман Тиббиёт бирлашмаси",
        "name": "Дўстобод ш. 4-махалла",
        "quantity": 1.0,
        "capacity": 20.0,
        "created_workplaces": 5,
        "type": "storage",
        "lat": 42.865355,
        "lon": 72.212014
    },
    {
        "district": "Қуйи Чирчиқ тумани",
        "org_name": "\"ТСТ агро кластер\" МЧЖ",
        "name": "Пахтазор МФЙ",
        "quantity": 1.0,
        "capacity": 200.0,
        "created_workplaces": 10,
        "type": "storage",
        "lat": 43.517642,
        "lon": 66.960518
    },
    {
        "district": "Қуйи Чирчиқ тумани",
        "org_name": "\"ТСТ Рис кластер\" МЧЖ",
        "name": "Сурум МФЙ",
        "quantity": 1.0,
        "capacity": 10000.0,
        "created_workplaces": 25,
        "type": "storage",
        "lat": 42.042662,
        "lon": 68.658859
    },
    {
        "district": "Пискент тумани",
        "org_name": "Тиббиёт бирлашмаси",
        "name": "Бирлик МФЙ",
        "quantity": 1.0,
        "capacity": 25.0,
        "created_workplaces": 1,
        "type": "storage",
        "lat": 37.947636,
        "lon": 65.580549
    },
    {
        "district": "None",
        "org_name": "None",
        "name": "None",
        "quantity": "None",
        "capacity": "None",
        "created_workplaces": "None",
        "type": "storage",
        "lat": 40.453563,
        "lon": 63.137252
    },
    {
        "district": "Ўртачирчиқ тумани",
        "org_name": "Қорасув пахта тозалаш заводи",
        "name": "Тинчлик МФЙ Заводская кўчаси",
        "quantity": 1.0,
        "capacity": 200.0,
        "created_workplaces": 2,
        "type": "storage",
        "lat": 40.330319,
        "lon": 72.045491
    },
    {
        "district": "Ўртачирчиқ тумани",
        "org_name": "\"Қорасув саҳоват дўст\" Ф/Х",
        "name": "Қорасув МФЙ",
        "quantity": 1.0,
        "capacity": 200.0,
        "created_workplaces": 2,
        "type": "storage",
        "lat": 38.683229,
        "lon": 68.800708
    },
    {
        "district": "Ўртачирчиқ тумани",
        "org_name": "\"Жахонгир агро бизнес\" Ф/Х",
        "name": "Саидовул МФЙ",
        "quantity": 1.0,
        "capacity": 300.0,
        "created_workplaces": 3,
        "type": "storage",
        "lat": 37.767086,
        "lon": 59.55154
    },
    {
        "district": "Ўртачирчиқ тумани",
        "org_name": "\"Lead Agroculture Development\" МЧЖ КК",
        "name": "А.Икрамов ҳудуди \"Бойовул\" МФЙ",
        "quantity": 1.0,
        "capacity": 2000.0,
        "created_workplaces": 14,
        "type": "storage",
        "lat": 39.159397,
        "lon": 60.895795
    },
    {
        "district": "Ўртачирчиқ тумани",
        "org_name": "Х.Т \"Мирзахмедов Ровшан\"",
        "name": "Қумовул ҳудуди Паркент тракт кўчаси",
        "quantity": 1.0,
        "capacity": 1000.0,
        "created_workplaces": 2,
        "type": "storage",
        "lat": 42.919988,
        "lon": 65.984007
    },
    {
        "district": "Ўртачирчиқ тумани",
        "org_name": " МТМ ",
        "name": "Қорасув МФЙ",
        "quantity": 1.0,
        "capacity": 60.0,
        "created_workplaces": 2,
        "type": "storage",
        "lat": 41.147977,
        "lon": 66.369914
    },
    {
        "district": "Ўртачирчиқ тумани",
        "org_name": " МТМ ",
        "name": "Қорасув МФЙ",
        "quantity": 1.0,
        "capacity": 40.0,
        "created_workplaces": 2,
        "type": "storage",
        "lat": 40.932771,
        "lon": 68.789984
    },
    {
        "district": "Ўртачирчиқ тумани",
        "org_name": "None",
        "name": "Тошлоқ МФЙ ",
        "quantity": 1.0,
        "capacity": 40.0,
        "created_workplaces": 2,
        "type": "storage",
        "lat": 40.996219,
        "lon": 61.367979
    },
    {
        "district": "Ўртачирчиқ тумани",
        "org_name": "Жуманазаров Хакимжон томорқа хизмати ",
        "name": "Аранчи МФЙ ",
        "quantity": 1.0,
        "capacity": 2000.0,
        "created_workplaces": 10,
        "type": "storage",
        "lat": 43.352703,
        "lon": 72.19523
    },
    {
        "district": "Чиноз тумани",
        "org_name": "\"Ўринбой хожи\" ф/х",
        "name": "Сутбулоқ мфй",
        "quantity": 1.0,
        "capacity": 200.0,
        "created_workplaces": 1,
        "type": "storage",
        "lat": 38.560876,
        "lon": 59.465839
    },
    {
        "district": "Чиноз тумани",
        "org_name": "Пахта нефт базаси",
        "name": "Яхши ният мфй",
        "quantity": 1.0,
        "capacity": 300.0,
        "created_workplaces": 2,
        "type": "storage",
        "lat": 43.261249,
        "lon": 67.417371
    },
    {
        "district": "Чиноз тумани",
        "org_name": "\"Таьминотчи Пахта\"",
        "name": "Яхши ният мфй",
        "quantity": 1.0,
        "capacity": 400.0,
        "created_workplaces": 2,
        "type": "storage",
        "lat": 41.879775,
        "lon": 64.462509
    },
    {
        "district": "Чиноз тумани",
        "org_name": "\"Абдураззоқ файз барака\" ф/х",
        "name": "Дўстлик мфй",
        "quantity": 1.0,
        "capacity": 120.0,
        "created_workplaces": 1,
        "type": "storage",
        "lat": 39.102689,
        "lon": 61.136618
    },
    {
        "district": "Чиноз тумани",
        "org_name": "\"Чиноз агро файз\" ф/х",
        "name": "Истиқлол мфй",
        "quantity": 1.0,
        "capacity": 200.0,
        "created_workplaces": 1,
        "type": "storage",
        "lat": 41.74834,
        "lon": 59.410077
    },
    {
        "district": "Чиноз тумани",
        "org_name": "\"Усмонобод\" ф/х",
        "name": "Боғбон мфй",
        "quantity": 1.0,
        "capacity": 120.0,
        "created_workplaces": 1,
        "type": "storage",
        "lat": 39.301427,
        "lon": 66.508873
    },
    {
        "district": "Чиноз тумани",
        "org_name": "\"Акромов Алишер\" ф/х",
        "name": "Истиқлол мфй",
        "quantity": 1.0,
        "capacity": 70.0,
        "created_workplaces": 1,
        "type": "storage",
        "lat": 37.235533,
        "lon": 68.370996
    },
    {
        "district": "Чиноз тумани",
        "org_name": "\"Арслонбоев А\" ф/х",
        "name": "Истиқлол мфй",
        "quantity": 1.0,
        "capacity": 70.0,
        "created_workplaces": 1,
        "type": "storage",
        "lat": 40.87609,
        "lon": 61.581254
    },
    {
        "district": "Чиноз тумани",
        "org_name": "\"NIXOL AZIZBEK AGRO\" фх",
        "name": "Дустлик мфй",
        "quantity": 1.0,
        "capacity": 50.0,
        "created_workplaces": 1,
        "type": "storage",
        "lat": 42.092435,
        "lon": 69.911134
    },
    {
        "district": "Чиноз тумани",
        "org_name": "\"CHINOZ TEXTILE\" МЧЖ                ",
        "name": "Чиноз шахри Сарбозор МФЙ",
        "quantity": 1.0,
        "capacity": 100.0,
        "created_workplaces": 1,
        "type": "storage",
        "lat": 39.851073,
        "lon": 68.35108
    },
    {
        "district": "Чиноз тумани",
        "org_name": "\"Чиноз Дехқон бозори\" МЧЖ",
        "name": "Чиноз шахри Бешкапа\n МФЙ Самарқанд кўчаси",
        "quantity": 1.0,
        "capacity": 100.0,
        "created_workplaces": 1,
        "type": "storage",
        "lat": 39.758933,
        "lon": 58.924174
    },
    {
        "district": "Чиноз тумани",
        "org_name": "Пахта тозалаш корхонаси ",
        "name": "Хўжа мфй Охунбобоев кўчаси",
        "quantity": 1.0,
        "capacity": 200.0,
        "created_workplaces": 1,
        "type": "storage",
        "lat": 43.08712,
        "lon": 61.375284
    },
    {
        "district": "Чиноз тумани",
        "org_name": "None",
        "name": "None",
        "quantity": "None",
        "capacity": "None",
        "created_workplaces": "None",
        "type": "storage",
        "lat": 39.620834,
        "lon": 65.454729
    },
    {
        "district": "Чиноз тумани",
        "org_name": "None",
        "name": "None",
        "quantity": "None",
        "capacity": "None",
        "created_workplaces": "None",
        "type": "storage",
        "lat": 38.560325,
        "lon": 70.217482
    },
    {
        "district": "Чиноз тумани",
        "org_name": "None",
        "name": "None",
        "quantity": "None",
        "capacity": "None",
        "created_workplaces": "None",
        "type": "storage",
        "lat": 41.816077,
        "lon": 65.498808
    },
    {
        "district": "Юқори Чирчиқ тумани",
        "org_name": "\"Дехкон бозори\" МЧЖ",
        "name": "Янгибозор ҚФЙ",
        "quantity": 1.0,
        "capacity": 25.0,
        "created_workplaces": 1,
        "type": "storage",
        "lat": 42.949446,
        "lon": 62.498846
    },
    {
        "district": "Юқори Чирчиқ тумани",
        "org_name": "Фермер уюшмасида 10 та омбор",
        "name": "туман худудларида",
        "quantity": 1.0,
        "capacity": 1000.0,
        "created_workplaces": 10,
        "type": "storage",
        "lat": 41.818625,
        "lon": 68.467916
    },
    {
        "district": "Юқори Чирчиқ тумани",
        "org_name": "туман Тиббиёт бирлашмаси",
        "name": "Оқ овул  ҚФЙ",
        "quantity": 1.0,
        "capacity": 30.0,
        "created_workplaces": 1,
        "type": "storage",
        "lat": 38.812708,
        "lon": 61.76561
    },
    {
        "district": "Юқори Чирчиқ тумани",
        "org_name": "туман Халқ таьлими бўлими",
        "name": "Янгибозор ҚФЙ",
        "quantity": 1.0,
        "capacity": 45.0,
        "created_workplaces": 1,
        "type": "storage",
        "lat": 39.029085,
        "lon": 59.839004
    },
    {
        "district": "None",
        "org_name": "None",
        "name": "None",
        "quantity": "None",
        "capacity": "None",
        "created_workplaces": "None",
        "type": "storage",
        "lat": 42.304456,
        "lon": 72.554407
    },
    {
        "district": "None",
        "org_name": "None",
        "name": "None",
        "quantity": "None",
        "capacity": "None",
        "created_workplaces": "None",
        "type": "storage",
        "lat": 40.995897,
        "lon": 66.023399
    },
    {
        "district": "None",
        "org_name": "None",
        "name": "None",
        "quantity": "None",
        "capacity": "None",
        "created_workplaces": "None",
        "type": "storage",
        "lat": 42.517744,
        "lon": 71.240948
    },
    {
        "district": "None",
        "org_name": "None",
        "name": "None",
        "quantity": "None",
        "capacity": "None",
        "created_workplaces": "None",
        "type": "storage",
        "lat": 40.456323,
        "lon": 60.85186
    },
    {
        "district": "Янгийўл туман",
        "org_name": "\"Гулбахор хамкор Савдо\" МЧЖ",
        "name": "Эски Қовунчи ҚФЙ Самарқанд кўчаси 254",
        "quantity": 1.0,
        "capacity": 200.0,
        "created_workplaces": 2,
        "type": "storage",
        "lat": 42.0027,
        "lon": 69.495375
    },
    {
        "district": "Янгийўл туман",
        "org_name": "ООО \"Камолот Крафт Алхожи\"",
        "name": "Э.Қовунчи ҚФЙ",
        "quantity": 1.0,
        "capacity": 1000.0,
        "created_workplaces": 5,
        "type": "storage",
        "lat": 38.076443,
        "lon": 68.772797
    },
    {
        "district": "Янгийўл туман",
        "org_name": "ООО \"GENERAL PACKAGING\"",
        "name": "Уразов кучаси 2 уй",
        "quantity": 1.0,
        "capacity": 500.0,
        "created_workplaces": 3,
        "type": "storage",
        "lat": 41.609297,
        "lon": 63.291607
    },
    {
        "district": "Янгийўл туман",
        "org_name": "None",
        "name": "None",
        "quantity": "None",
        "capacity": "None",
        "created_workplaces": "None",
        "type": "storage",
        "lat": 42.007615,
        "lon": 65.912344
    },
    {
        "district": "Янгийўл туман",
        "org_name": "None",
        "name": "None",
        "quantity": "None",
        "capacity": "None",
        "created_workplaces": "None",
        "type": "storage",
        "lat": 43.3795,
        "lon": 63.520065
    },
    {
        "district": "Янгийўл туман",
        "org_name": "None",
        "name": "None",
        "quantity": "None",
        "capacity": "None",
        "created_workplaces": "None",
        "type": "storage",
        "lat": 38.647104,
        "lon": 61.952329
    },
    {
        "district": "Янгийўл туман",
        "org_name": "None",
        "name": "None",
        "quantity": "None",
        "capacity": "None",
        "created_workplaces": "None",
        "type": "storage",
        "lat": 39.503509,
        "lon": 71.384308
    },
    {
        "district": "Янгийўл туман",
        "org_name": "None",
        "name": "None",
        "quantity": "None",
        "capacity": "None",
        "created_workplaces": "None",
        "type": "storage",
        "lat": 42.947058,
        "lon": 59.983878
    },
    {
        "district": "Янгийўл туман",
        "org_name": "None",
        "name": "None",
        "quantity": "None",
        "capacity": "None",
        "created_workplaces": "None",
        "type": "storage",
        "lat": 43.034966,
        "lon": 59.874663
    },
    {
        "district": "Янгийўл туман",
        "org_name": "None",
        "name": "None",
        "quantity": "None",
        "capacity": "None",
        "created_workplaces": "None",
        "type": "storage",
        "lat": 43.047534,
        "lon": 72.413346
    },
    {
        "district": "Янгийўл туман",
        "org_name": "None",
        "name": "None",
        "quantity": "None",
        "capacity": "None",
        "created_workplaces": "None",
        "type": "storage",
        "lat": 43.171208,
        "lon": 72.47584
    },
    {
        "district": "Янгийўл туман",
        "org_name": "None",
        "name": "None",
        "quantity": "None",
        "capacity": "None",
        "created_workplaces": "None",
        "type": "storage",
        "lat": 38.039759,
        "lon": 69.693853
    },
    {
        "district": "Паркент тумани ",
        "org_name": "\"Бурхон савдо\" МЧЖ",
        "name": "Паркент ш. Қўличи МФЙ",
        "quantity": 1.0,
        "capacity": 100.0,
        "created_workplaces": 1,
        "type": "storage",
        "lat": 37.95336,
        "lon": 71.03908
    },
    {
        "district": "Паркент тумани ",
        "org_name": "Акушерлик комплекси",
        "name": "Хисорак ҚФЙ Акушерлик комплекси",
        "quantity": 1.0,
        "capacity": 30.0,
        "created_workplaces": 1,
        "type": "storage",
        "lat": 40.447599,
        "lon": 65.792651
    },
    {
        "district": "Паркент тумани ",
        "org_name": "Газлаштириш идораси",
        "name": "Паркент тумани Кесканжар массиви",
        "quantity": 1.0,
        "capacity": 18.0,
        "created_workplaces": 1,
        "type": "storage",
        "lat": 43.336908,
        "lon": 71.282077
    },
    {
        "district": "Паркент тумани ",
        "org_name": "Йўл қурилиш идораси",
        "name": "Паркент тумани",
        "quantity": 1.0,
        "capacity": 20.0,
        "created_workplaces": 1,
        "type": "storage",
        "lat": 40.786758,
        "lon": 60.108542
    },
    {
        "district": "Паркент тумани ",
        "org_name": "МТМ",
        "name": " Паркент Укитувчилар кучаси-56",
        "quantity": 16.0,
        "capacity": 135.0,
        "created_workplaces": 16,
        "type": "storage",
        "lat": 37.234283,
        "lon": 68.938142
    },
    {
        "district": "Паркент тумани ",
        "org_name": "\"Паркент Деҳқон бозори\" МЧЖ",
        "name": "Паркент А.Навоий ",
        "quantity": 1.0,
        "capacity": 200.0,
        "created_workplaces": 4,
        "type": "storage",
        "lat": 38.719783,
        "lon": 72.459423
    },
    {
        "district": "Паркент тумани ",
        "org_name": "“Паркент Зиё Нур” МЧЖ",
        "name": "Бойқозон МФЙ",
        "quantity": 1.0,
        "capacity": 100.0,
        "created_workplaces": 1,
        "type": "storage",
        "lat": 38.4724,
        "lon": 66.484928
    },
    {
        "district": "None",
        "org_name": "None",
        "name": "None",
        "quantity": "None",
        "capacity": "None",
        "created_workplaces": "None",
        "type": "storage",
        "lat": 42.183259,
        "lon": 60.872761
    },
    {
        "district": "None",
        "org_name": "None",
        "name": "None",
        "quantity": "None",
        "capacity": "None",
        "created_workplaces": "None",
        "type": "storage",
        "lat": 41.30486,
        "lon": 68.47796
    },
    {
        "district": "None",
        "org_name": "None",
        "name": "None",
        "quantity": "None",
        "capacity": "None",
        "created_workplaces": "None",
        "type": "storage",
        "lat": 39.201838,
        "lon": 64.356806
    },
    {
        "district": "None",
        "org_name": "None",
        "name": "None",
        "quantity": "None",
        "capacity": "None",
        "created_workplaces": "None",
        "type": "storage",
        "lat": 42.583308,
        "lon": 67.456228
    },
    {
        "district": "None",
        "org_name": "None",
        "name": "None",
        "quantity": "None",
        "capacity": "None",
        "created_workplaces": "None",
        "type": "storage",
        "lat": 39.092794,
        "lon": 62.615529
    },
    {
        "district": "None",
        "org_name": "None",
        "name": "None",
        "quantity": "None",
        "capacity": "None",
        "created_workplaces": "None",
        "type": "storage",
        "lat": 42.62862,
        "lon": 70.692623
    },
    {
        "district": "None",
        "org_name": "None",
        "name": "None",
        "quantity": "None",
        "capacity": "None",
        "created_workplaces": "None",
        "type": "storage",
        "lat": 43.644436,
        "lon": 71.345179
    },
    {
        "district": "None",
        "org_name": "None",
        "name": "None",
        "quantity": "None",
        "capacity": "None",
        "created_workplaces": "None",
        "type": "storage",
        "lat": 42.236528,
        "lon": 72.343141
    },
    {
        "district": "None",
        "org_name": "None",
        "name": "None",
        "quantity": "None",
        "capacity": "None",
        "created_workplaces": "None",
        "type": "storage",
        "lat": 39.919074,
        "lon": 62.549543
    },
    {
        "district": "None",
        "org_name": "None",
        "name": "None",
        "quantity": "None",
        "capacity": "None",
        "created_workplaces": "None",
        "type": "storage",
        "lat": 37.38581,
        "lon": 69.739715
    },
    {
        "district": "None",
        "org_name": "None",
        "name": "None",
        "quantity": "None",
        "capacity": "None",
        "created_workplaces": "None",
        "type": "storage",
        "lat": 37.574635,
        "lon": 64.787797
    },
    {
        "district": "None",
        "org_name": "None",
        "name": "None",
        "quantity": "None",
        "capacity": "None",
        "created_workplaces": "None",
        "type": "storage",
        "lat": 41.289557,
        "lon": 60.976269
    },
    {
        "district": "None",
        "org_name": "None",
        "name": "None",
        "quantity": "None",
        "capacity": "None",
        "created_workplaces": "None",
        "type": "storage",
        "lat": 42.807917,
        "lon": 62.770623
    },
    {
        "district": "None",
        "org_name": "None",
        "name": "None",
        "quantity": "None",
        "capacity": "None",
        "created_workplaces": "None",
        "type": "storage",
        "lat": 43.591013,
        "lon": 72.471037
    },
    {
        "district": "None",
        "org_name": "None",
        "name": "None",
        "quantity": "None",
        "capacity": "None",
        "created_workplaces": "None",
        "type": "storage",
        "lat": 38.782608,
        "lon": 64.614441
    },
    {
        "district": "None",
        "org_name": "None",
        "name": "None",
        "quantity": "None",
        "capacity": "None",
        "created_workplaces": "None",
        "type": "storage",
        "lat": 37.887019,
        "lon": 58.969516
    },
    {
        "district": "None",
        "org_name": "None",
        "name": "None",
        "quantity": "None",
        "capacity": "None",
        "created_workplaces": "None",
        "type": "storage",
        "lat": 41.471771,
        "lon": 71.082638
    },
    {
        "district": "None",
        "org_name": "None",
        "name": "None",
        "quantity": "None",
        "capacity": "None",
        "created_workplaces": "None",
        "type": "storage",
        "lat": 41.632896,
        "lon": 70.203889
    },
    {
        "district": "None",
        "org_name": "None",
        "name": "None",
        "quantity": "None",
        "capacity": "None",
        "created_workplaces": "None",
        "type": "storage",
        "lat": 40.017356,
        "lon": 63.579033
    },
    {
        "district": "None",
        "org_name": "None",
        "name": "None",
        "quantity": "None",
        "capacity": "None",
        "created_workplaces": "None",
        "type": "storage",
        "lat": 42.344156,
        "lon": 71.633384
    },
    {
        "district": "None",
        "org_name": "None",
        "name": "None",
        "quantity": "None",
        "capacity": "None",
        "created_workplaces": "None",
        "type": "storage",
        "lat": 42.089084,
        "lon": 62.590347
    },
    {
        "district": "None",
        "org_name": "None",
        "name": "None",
        "quantity": "None",
        "capacity": "None",
        "created_workplaces": "None",
        "type": "storage",
        "lat": 42.911272,
        "lon": 63.011722
    },
    {
        "district": "None",
        "org_name": "None",
        "name": "None",
        "quantity": "None",
        "capacity": "None",
        "created_workplaces": "None",
        "type": "storage",
        "lat": 38.233984,
        "lon": 61.329719
    },
    {
        "district": "None",
        "org_name": "None",
        "name": "None",
        "quantity": "None",
        "capacity": "None",
        "created_workplaces": "None",
        "type": "storage",
        "lat": 39.661983,
        "lon": 68.787217
    },
    {
        "district": "None",
        "org_name": "None",
        "name": "None",
        "quantity": "None",
        "capacity": "None",
        "created_workplaces": "None",
        "type": "storage",
        "lat": 42.036089,
        "lon": 68.092337
    },
    {
        "district": "None",
        "org_name": "None",
        "name": "None",
        "quantity": "None",
        "capacity": "None",
        "created_workplaces": "None",
        "type": "storage",
        "lat": 43.343019,
        "lon": 61.082083
    },
    {
        "district": "None",
        "org_name": "None",
        "name": "None",
        "quantity": "None",
        "capacity": "None",
        "created_workplaces": "None",
        "type": "storage",
        "lat": 40.01472,
        "lon": 70.822615
    },
    {
        "district": "None",
        "org_name": "None",
        "name": "None",
        "quantity": "None",
        "capacity": "None",
        "created_workplaces": "None",
        "type": "storage",
        "lat": 40.304696,
        "lon": 63.510497
    },
    {
        "district": "None",
        "org_name": "None",
        "name": "None",
        "quantity": "None",
        "capacity": "None",
        "created_workplaces": "None",
        "type": "storage",
        "lat": 43.232167,
        "lon": 71.823551
    },
    {
        "district": "None",
        "org_name": "None",
        "name": "None",
        "quantity": "None",
        "capacity": "None",
        "created_workplaces": "None",
        "type": "storage",
        "lat": 38.426971,
        "lon": 66.534423
    },
    {
        "district": "None",
        "org_name": "None",
        "name": "None",
        "quantity": "None",
        "capacity": "None",
        "created_workplaces": "None",
        "type": "storage",
        "lat": 41.712018,
        "lon": 69.486668
    },
    {
        "district": "None",
        "org_name": "None",
        "name": "None",
        "quantity": "None",
        "capacity": "None",
        "created_workplaces": "None",
        "type": "storage",
        "lat": 43.510349,
        "lon": 67.498046
    },
    {
        "district": "None",
        "org_name": "None",
        "name": "None",
        "quantity": "None",
        "capacity": "None",
        "created_workplaces": "None",
        "type": "storage",
        "lat": 38.773129,
        "lon": 60.624342
    },
    {
        "district": "Тошкент тумани",
        "org_name": "Хасанбой агро нур агрофирмаси",
        "name": "Хасанбой агро нур агрофирмаси",
        "quantity": 1.0,
        "capacity": 100.0,
        "created_workplaces": 3,
        "type": "storage",
        "lat": 41.570705,
        "lon": 69.803084
    },
    {
        "district": "Тошкент тумани",
        "org_name": "Ғишткщприк агро агрофирмаси",
        "name": "Ғишткщприк агро агрофирмаси",
        "quantity": 1.0,
        "capacity": 500.0,
        "created_workplaces": 10,
        "type": "storage",
        "lat": 42.168391,
        "lon": 66.744198
    },
    {
        "district": "Тошкент тумани",
        "org_name": "Навоий миришкор агрофирмаси",
        "name": "Навоий миришкор агрофирмаси",
        "quantity": 1.0,
        "capacity": 500.0,
        "created_workplaces": 10,
        "type": "storage",
        "lat": 39.79546,
        "lon": 59.26073
    },
    {
        "district": "Тошкент тумани",
        "org_name": "Кўктерак хосилот файз агрофирмаси",
        "name": "Кўктерак хосилот файз агрофирмаси",
        "quantity": 1.0,
        "capacity": 50.0,
        "created_workplaces": 2,
        "type": "storage",
        "lat": 39.124397,
        "lon": 63.962923
    },
    {
        "district": "Тошкент тумани",
        "org_name": "Тош-Тўлабий агро агрофирмаси",
        "name": "Тош-Тўлабий агро агрофирмаси",
        "quantity": 1.0,
        "capacity": 500.0,
        "created_workplaces": 10,
        "type": "storage",
        "lat": 39.501399,
        "lon": 60.757384
    },
    {
        "district": "None",
        "org_name": "None",
        "name": "None",
        "quantity": "None",
        "capacity": "None",
        "created_workplaces": "None",
        "type": "storage",
        "lat": 38.572714,
        "lon": 60.511128
    },
    {
        "district": "None",
        "org_name": "None",
        "name": "None",
        "quantity": "None",
        "capacity": "None",
        "created_workplaces": "None",
        "type": "storage",
        "lat": 38.423483,
        "lon": 68.253757
    },
    {
        "district": "Зангиота тумани",
        "org_name": "\"MULTIMODAL TRANS TERMINAL\" МЧЖ",
        "name": "НАЗАРБЕК КФЙ ЛОЙИХАЛАШ КУЧАСИ 7-УЙ",
        "quantity": 1.0,
        "capacity": 600.0,
        "created_workplaces": 5,
        "type": "storage",
        "lat": 41.07676,
        "lon": 66.009622
    },
    {
        "district": "Зангиота тумани",
        "org_name": "\"CHIN-ROSS TRADE\" МЧЖ",
        "name": "ЎЗГАРИШ ҚФЙ ПАСТДАРХОН МФЙ НАВРЎЗ КЎЧАСИ 22 УЙ",
        "quantity": 1.0,
        "capacity": 600.0,
        "created_workplaces": 3,
        "type": "storage",
        "lat": 41.787121,
        "lon": 64.648258
    },
    {
        "district": "Зангиота тумани",
        "org_name": "\"MUSAEV AGRO BIZNES\" Ф/Х",
        "name": "ЧИҒАТОЙ ОҚ ТЕПА ҚФЙ",
        "quantity": 1.0,
        "capacity": 500.0,
        "created_workplaces": 3,
        "type": "storage",
        "lat": 42.659894,
        "lon": 70.120851
    },
    {
        "district": "Зангиота тумани",
        "org_name": "\"Рахим Отажон\" Ф/X",
        "name": "НАЗАРБЕК КФЙ ҚАЙНАМА КЎЧАСИ",
        "quantity": 1.0,
        "capacity": 200.0,
        "created_workplaces": 2,
        "type": "storage",
        "lat": 40.555141,
        "lon": 62.892657
    }
]